{
    "result": null,
    "results": [
        {
            "id": 0,
            "name": "ARSLAN ECZANESİ",
            "watchDate": "27.07.2023",
            "address": "KILIÇARSLAN MAH. KIZILIRMAK CAD. NO:43/A  ",
            "neighborhood": "KILIÇASLAN",
            "district": "MELİKGAZİ",
            "phone": "0 (352) 234 14 14",
            "watchType": "Gece 01.00 kadar açık",
            "eWatchType": "0",
            "latitude": 38.7230810551625,
            "longitude": 35.5065764038101,
            "distance": "752",
            "distanceKm": "752 m",
            "message": null,
            "category": null,
            "subCategory": null
        },
        {
            "id": 0,
            "name": "CEM ECZANESİ",
            "watchDate": "27.07.2023",
            "address": "FEVZİÇAKMAK MAH YEŞİLIRMAK CAD NO:27/C  ",
            "neighborhood": "FEVZİ ÇAKMAK",
            "district": "KOCASİNAN",
            "phone": "0 (352) 233 48 75",
            "watchType": "Gece 01.00 kadar açık",
            "eWatchType": "0",
            "latitude": 38.731347407451,
            "longitude": 35.5016478184587,
            "distance": "912",
            "distanceKm": "912 m",
            "message": null,
            "category": null,
            "subCategory": null
        },
        {
            "id": 0,
            "name": "YAĞCI ECZANESİ",
            "watchDate": "27.07.2023",
            "address": "TACETTİNVELİ MAH. DELİKLİTAŞ CAD. NO:23/A",
            "neighborhood": "TACETTİNVELİ",
            "district": "MELİKGAZİ",
            "phone": "0 (352) 225 83 01",
            "watchType": "24 Saat Açık",
            "eWatchType": "1",
            "latitude": 38.7123348646139,
            "longitude": 35.4932011621025,
            "distance": "1323",
            "distanceKm": "1.3 km",
            "message": null,
            "category": null,
            "subCategory": null
        },
        {
            "id": 0,
            "name": "DERVİŞ ECZANESİ",
            "watchDate": "27.07.2023",
            "address": "GEVHER NESİBE MAH.ATATÜRK BUL. NO:35/B  ",
            "neighborhood": "HACI SAKİ",
            "district": "KOCASİNAN",
            "phone": "0 (352) 320 72 62",
            "watchType": "24 Saat Açık",
            "eWatchType": "1",
            "latitude": 38.7233676343125,
            "longitude": 35.4811431527434,
            "distance": "1463",
            "distanceKm": "1.5 km",
            "message": null,
            "category": null,
            "subCategory": null
        },
        {
            "id": 0,
            "name": "SU ECZANESİ",
            "watchDate": "27.07.2023",
            "address": "GEVHER NESİBE MAH. ÇİÇEK SK. NO:25  ",
            "neighborhood": "GEVHER NESİBE",
            "district": "KOCASİNAN",
            "phone": "0 (352) 221 42 00",
            "watchType": "24 Saat Açık",
            "eWatchType": "1",
            "latitude": 38.7281945364325,
            "longitude": 35.4797197280811,
            "distance": "1664",
            "distanceKm": "1.7 km",
            "message": null,
            "category": null,
            "subCategory": null
        },
        {
            "id": 0,
            "name": "MODA ECZANESİ",
            "watchDate": "27.07.2023",
            "address": "KÖŞK MAHALLESİ TUNCA SOK. 12/C",
            "neighborhood": "KÖŞK",
            "district": "MELİKGAZİ",
            "phone": "0 (352) 237 64 31",
            "watchType": "Gece 01.00 kadar açık",
            "eWatchType": "0",
            "latitude": 38.7235689767837,
            "longitude": 35.5177647237651,
            "distance": "1722",
            "distanceKm": "1.7 km",
            "message": null,
            "category": null,
            "subCategory": null
        },
        {
            "id": 0,
            "name": "HİSAR ECZANESİ",
            "watchDate": "27.07.2023",
            "address": "HÜRRİYET MAH ÜSKÜDAR CAD 20/B NİMET BAYRAKTAR DİŞ HASTANESİ KARŞISI  ",
            "neighborhood": "HÜRRİYET",
            "district": "MELİKGAZİ",
            "phone": "",
            "watchType": "Gece 01.00 kadar açık",
            "eWatchType": "0",
            "latitude": 38.7172481768321,
            "longitude": 35.4589263450303,
            "distance": "3468",
            "distanceKm": "3.5 km",
            "message": null,
            "category": null,
            "subCategory": null
        },
        {
            "id": 0,
            "name": "GÖKÇEN ECZANESİ",
            "watchDate": "27.07.2023",
            "address": "OSMANLI MAH. DALGIÇ SOKAK NO:2",
            "neighborhood": "OSMANLI",
            "district": "MELİKGAZİ",
            "phone": "",
            "watchType": "Gece 01.00 kadar açık",
            "eWatchType": "0",
            "latitude": 38.6883780872246,
            "longitude": 35.4748002432701,
            "distance": "4404",
            "distanceKm": "4.4 km",
            "message": null,
            "category": null,
            "subCategory": null
        },
        {
            "id": 0,
            "name": "ALTINOLUK ECZANESİ",
            "watchDate": "27.07.2023",
            "address": "Altınoluk Mah. Fatih Sultan Mehmet Bulv. Anadolu Apartmanı No:16/A  ",
            "neighborhood": "ALTINOLUK",
            "district": "MELİKGAZİ",
            "phone": "0 (352) 355 38 60",
            "watchType": "Gece 01.00 kadar açık",
            "eWatchType": "0",
            "latitude": 38.7010064297474,
            "longitude": 35.4440845203651,
            "distance": "5318",
            "distanceKm": "5.3 km",
            "message": null,
            "category": null,
            "subCategory": null
        },
        {
            "id": 0,
            "name": "ÜNVER ECZANESİ",
            "watchDate": "27.07.2023",
            "address": "Bahçelievler Mah. Mevlana Cad. Avcıl Sitesi B Blok No:28/D",
            "neighborhood": "BAHÇELİEVLER",
            "district": "TALAS",
            "phone": "0 (352) 437 20 29",
            "watchType": "Gece 01.00 kadar açık",
            "eWatchType": "0",
            "latitude": 38.6883959543763,
            "longitude": 35.5443297788215,
            "distance": "5621",
            "distanceKm": "5.6 km",
            "message": null,
            "category": null,
            "subCategory": null
        },
        {
            "id": 0,
            "name": "ŞEYMA ECZANESİ",
            "watchDate": "27.07.2023",
            "address": "Talas - Mevlana Mah. Papatya CAd. 51/C /S.Z.Ustaoğlu ASM Yanı",
            "neighborhood": "MEVLANA",
            "district": "TALAS",
            "phone": "0 (352) 999 14 16",
            "watchType": "Gece 01.00 kadar açık",
            "eWatchType": "0",
            "latitude": 38.7095953154863,
            "longitude": 35.5671215261822,
            "distance": "6214",
            "distanceKm": "6.2 km",
            "message": null,
            "category": null,
            "subCategory": null
        },
        {
            "id": 0,
            "name": "GENÇ ECZANESİ",
            "watchDate": "27.07.2023",
            "address": "ŞEHİR HASTANESİ KARŞISI - ŞEKER MAH. MUHSİN YAZICIOĞLU BULV. NO:74/A    ",
            "neighborhood": "ŞEKER",
            "district": "KOCASİNAN",
            "phone": "0 (352) 235 20 50",
            "watchType": "24 Saat Açık",
            "eWatchType": "1",
            "latitude": 38.7703433705807,
            "longitude": 35.4131738376828,
            "distance": "9011",
            "distanceKm": "9 km",
            "message": null,
            "category": null,
            "subCategory": null
        },
        {
            "id": 0,
            "name": "FATİH ECZANESİ",
            "watchDate": "27.07.2023",
            "address": "30 Ağustos Mah. Hasan Esat Işık Bulv. No:22/B",
            "neighborhood": "30 AĞUSTOS",
            "district": "MELİKGAZİ",
            "phone": "0 (352) 326 99 35",
            "watchType": "Gece 01.00 kadar açık",
            "eWatchType": "0",
            "latitude": 38.7462649028542,
            "longitude": 35.3918575095227,
            "distance": "9561",
            "distanceKm": "9.6 km",
            "message": null,
            "category": null,
            "subCategory": null
        },
        {
            "id": 0,
            "name": "ÖMER FARUK ECZANESİ",
            "watchDate": "27.07.2023",
            "address": "TOKİ Demokrasi Mah. Şht. Hikmet Gülnar Sk. 24/A   ",
            "neighborhood": "DEMOKRASİ",
            "district": "MELİKGAZİ",
            "phone": "0 (352) 248 00 02",
            "watchType": "24 Saat Açık",
            "eWatchType": "1",
            "latitude": 38.7659174365766,
            "longitude": 35.6041917778675,
            "distance": "10359",
            "distanceKm": "10.4 km",
            "message": null,
            "category": null,
            "subCategory": null
        }
    ],
    "success": true,
    "message": null,
    "respons": []
}